<?xml version="1.0"?>
<ArrayOfCustomer xmlns:xsi="http://www.w3.org/2001/XMLSchema-instance" xmlns:xsd="http://www.w3.org/2001/XMLSchema">
  <Customer>
    <ID>100000</ID>
    <Name>James</Name>
    <Phone>576818815</Phone>
    <Latitude>-0.44602562368196697</Latitude>
    <Longitude>0.8404106194341605</Longitude>
    <Active>true</Active>
    <Password>100000</Password>
  </Customer>
  <Customer>
    <ID>100001</ID>
    <Name>Robert</Name>
    <Phone>939933456</Phone>
    <Latitude>-0.6692804292166981</Latitude>
    <Longitude>1.3886559323354886</Longitude>
    <Active>true</Active>
    <Password>100001</Password>
  </Customer>
  <Customer>
    <ID>100002</ID>
    <Name>John</Name>
    <Phone>962701742</Phone>
    <Latitude>-0.08953127408844012</Latitude>
    <Longitude>0.21713546766766137</Longitude>
    <Active>true</Active>
    <Password>100002</Password>
  </Customer>
  <Customer>
    <ID>100003</ID>
    <Name>Michael</Name>
    <Phone>503766092</Phone>
    <Latitude>0.4574117457761484</Latitude>
    <Longitude>0.5846473186205362</Longitude>
    <Active>true</Active>
    <Password>100003</Password>
  </Customer>
  <Customer>
    <ID>100004</ID>
    <Name>William</Name>
    <Phone>413632520</Phone>
    <Latitude>0.3374145884706707</Latitude>
    <Longitude>1.35682958427669</Longitude>
    <Active>true</Active>
    <Password>100004</Password>
  </Customer>
  <Customer>
    <ID>100005</ID>
    <Name>David</Name>
    <Phone>768936225</Phone>
    <Latitude>0.26367350866257844</Latitude>
    <Longitude>0.06789701807680401</Longitude>
    <Active>true</Active>
    <Password>100005</Password>
  </Customer>
  <Customer>
    <ID>100006</ID>
    <Name>Richard</Name>
    <Phone>969591487</Phone>
    <Latitude>0.13571540039764504</Latitude>
    <Longitude>1.839619063697578</Longitude>
    <Active>true</Active>
    <Password>100006</Password>
  </Customer>
  <Customer>
    <ID>100007</ID>
    <Name>Joseph</Name>
    <Phone>177263372</Phone>
    <Latitude>0.6874916095694023</Latitude>
    <Longitude>1.3297280321501792</Longitude>
    <Active>true</Active>
    <Password>100007</Password>
  </Customer>
  <Customer>
    <ID>100008</ID>
    <Name>Thomas</Name>
    <Phone>534726304</Phone>
    <Latitude>0.3340231517022583</Latitude>
    <Longitude>0.17411418546648424</Longitude>
    <Active>true</Active>
    <Password>100008</Password>
  </Customer>
  <Customer>
    <ID>100009</ID>
    <Name>Charles</Name>
    <Phone>860063100</Phone>
    <Latitude>-0.953391183145992</Latitude>
    <Longitude>1.5806011369361548</Longitude>
    <Active>true</Active>
    <Password>100009</Password>
  </Customer>
  <Customer>
    <ID>100010</ID>
    <Name>Mary</Name>
    <Phone>210160491</Phone>
    <Latitude>0.6517758111710548</Latitude>
    <Longitude>1.6406257439593905</Longitude>
    <Active>true</Active>
    <Password>100010</Password>
  </Customer>
  <Customer>
    <ID>100011</ID>
    <Name>Patricia</Name>
    <Phone>474684861</Phone>
    <Latitude>0.4862350553675718</Latitude>
    <Longitude>0.024232042033333352</Longitude>
    <Active>true</Active>
    <Password>100011</Password>
  </Customer>
  <Customer>
    <ID>100012</ID>
    <Name>Jennifer</Name>
    <Phone>911428764</Phone>
    <Latitude>0.45885402218385324</Latitude>
    <Longitude>1.8810231573325689</Longitude>
    <Active>true</Active>
    <Password>100012</Password>
  </Customer>
  <Customer>
    <ID>100013</ID>
    <Name>Linda</Name>
    <Phone>300189979</Phone>
    <Latitude>0.6706626157605381</Latitude>
    <Longitude>0.5322503496577267</Longitude>
    <Active>true</Active>
    <Password>100013</Password>
  </Customer>
  <Customer>
    <ID>100014</ID>
    <Name>Elizabeth</Name>
    <Phone>622526195</Phone>
    <Latitude>-0.2567850264053722</Latitude>
    <Longitude>1.59508799183885</Longitude>
    <Active>true</Active>
    <Password>100014</Password>
  </Customer>
  <Customer>
    <ID>100015</ID>
    <Name>Barbara</Name>
    <Phone>871442803</Phone>
    <Latitude>0.32207677202395946</Latitude>
    <Longitude>0.5421317632040622</Longitude>
    <Active>true</Active>
    <Password>100015</Password>
  </Customer>
  <Customer>
    <ID>100016</ID>
    <Name>Susan</Name>
    <Phone>607263783</Phone>
    <Latitude>0.40889063962217914</Latitude>
    <Longitude>0.22921167883519628</Longitude>
    <Active>true</Active>
    <Password>100016</Password>
  </Customer>
  <Customer>
    <ID>100017</ID>
    <Name>Jessica</Name>
    <Phone>784184259</Phone>
    <Latitude>-0.5805327839127429</Latitude>
    <Longitude>0.7901787910564704</Longitude>
    <Active>true</Active>
    <Password>100017</Password>
  </Customer>
  <Customer>
    <ID>100018</ID>
    <Name>Sarah</Name>
    <Phone>188689279</Phone>
    <Latitude>0.11065412597295554</Latitude>
    <Longitude>0.18297332254376883</Longitude>
    <Active>true</Active>
    <Password>100018</Password>
  </Customer>
  <Customer>
    <ID>100019</ID>
    <Name>Karen</Name>
    <Phone>340212174</Phone>
    <Latitude>0.04512808986246963</Latitude>
    <Longitude>0.9599554179981143</Longitude>
    <Active>true</Active>
    <Password>100019</Password>
  </Customer>
  <Customer>
    <ID>100020</ID>
    <Name>Christopher</Name>
    <Phone>401158335</Phone>
    <Latitude>-0.8000057371333268</Latitude>
    <Longitude>1.253988338286983</Longitude>
    <Active>true</Active>
    <Password>100020</Password>
  </Customer>
  <Customer>
    <ID>100021</ID>
    <Name>Daniel</Name>
    <Phone>988938316</Phone>
    <Latitude>-0.5853932693532636</Latitude>
    <Longitude>1.6247332224737543</Longitude>
    <Active>true</Active>
    <Password>100021</Password>
  </Customer>
  <Customer>
    <ID>100022</ID>
    <Name>Matthew</Name>
    <Phone>685246065</Phone>
    <Latitude>0.4310818377095656</Latitude>
    <Longitude>1.175459060434</Longitude>
    <Active>true</Active>
    <Password>100022</Password>
  </Customer>
  <Customer>
    <ID>100023</ID>
    <Name>Anthony</Name>
    <Phone>549458774</Phone>
    <Latitude>0.44132694855394167</Latitude>
    <Longitude>1.600647548027638</Longitude>
    <Active>true</Active>
    <Password>100023</Password>
  </Customer>
  <Customer>
    <ID>100024</ID>
    <Name>Mark</Name>
    <Phone>138966432</Phone>
    <Latitude>-0.7257052113887412</Latitude>
    <Longitude>0.014851745224954442</Longitude>
    <Active>true</Active>
    <Password>100024</Password>
  </Customer>
  <Customer>
    <ID>100025</ID>
    <Name>Donald</Name>
    <Phone>874626893</Phone>
    <Latitude>-0.6864891884319899</Latitude>
    <Longitude>0.6421094642216849</Longitude>
    <Active>true</Active>
    <Password>100025</Password>
  </Customer>
  <Customer>
    <ID>100026</ID>
    <Name>Steven</Name>
    <Phone>109940427</Phone>
    <Latitude>0.30469297399031603</Latitude>
    <Longitude>0.2235583701280683</Longitude>
    <Active>true</Active>
    <Password>100026</Password>
  </Customer>
  <Customer>
    <ID>100027</ID>
    <Name>Paul</Name>
    <Phone>203183532</Phone>
    <Latitude>0.5922630846464368</Latitude>
    <Longitude>1.070913143954665</Longitude>
    <Active>true</Active>
    <Password>100027</Password>
  </Customer>
  <Customer>
    <ID>100028</ID>
    <Name>Andrew</Name>
    <Phone>675237726</Phone>
    <Latitude>-0.9740148363513941</Latitude>
    <Longitude>0.1143058678667554</Longitude>
    <Active>true</Active>
    <Password>100028</Password>
  </Customer>
  <Customer>
    <ID>100029</ID>
    <Name>Joshua</Name>
    <Phone>373469280</Phone>
    <Latitude>-0.981485605696908</Latitude>
    <Longitude>1.9564663134312565</Longitude>
    <Active>true</Active>
    <Password>100029</Password>
  </Customer>
  <Customer>
    <ID>100030</ID>
    <Name>Nancy</Name>
    <Phone>969813941</Phone>
    <Latitude>-0.8131718955995384</Latitude>
    <Longitude>0.6582457910563079</Longitude>
    <Active>true</Active>
    <Password>100030</Password>
  </Customer>
  <Customer>
    <ID>100031</ID>
    <Name>Lisa</Name>
    <Phone>166654317</Phone>
    <Latitude>0.8600795724708957</Latitude>
    <Longitude>1.3144333908867247</Longitude>
    <Active>true</Active>
    <Password>100031</Password>
  </Customer>
  <Customer>
    <ID>100032</ID>
    <Name>Betty</Name>
    <Phone>259761005</Phone>
    <Latitude>-0.7556904720867474</Latitude>
    <Longitude>1.0823944085661297</Longitude>
    <Active>true</Active>
    <Password>100032</Password>
  </Customer>
  <Customer>
    <ID>100033</ID>
    <Name>Margaret</Name>
    <Phone>809597479</Phone>
    <Latitude>0.6102061241912684</Latitude>
    <Longitude>1.296262368232134</Longitude>
    <Active>true</Active>
    <Password>100033</Password>
  </Customer>
  <Customer>
    <ID>100034</ID>
    <Name>Sandra</Name>
    <Phone>593285004</Phone>
    <Latitude>0.6971672837143612</Latitude>
    <Longitude>1.36603253212107</Longitude>
    <Active>true</Active>
    <Password>100034</Password>
  </Customer>
  <Customer>
    <ID>100035</ID>
    <Name>Ashley</Name>
    <Phone>769082801</Phone>
    <Latitude>0.3306515199740657</Latitude>
    <Longitude>0.1160206422750003</Longitude>
    <Active>true</Active>
    <Password>100035</Password>
  </Customer>
  <Customer>
    <ID>100036</ID>
    <Name>Kimberly</Name>
    <Phone>488673170</Phone>
    <Latitude>0.9710158589161075</Latitude>
    <Longitude>1.0507676028882933</Longitude>
    <Active>true</Active>
    <Password>100036</Password>
  </Customer>
  <Customer>
    <ID>100037</ID>
    <Name>Emily</Name>
    <Phone>980562992</Phone>
    <Latitude>-0.8759889634679952</Latitude>
    <Longitude>0.12362086126749444</Longitude>
    <Active>true</Active>
    <Password>100037</Password>
  </Customer>
  <Customer>
    <ID>100038</ID>
    <Name>Donna</Name>
    <Phone>498113712</Phone>
    <Latitude>-0.2784532891951749</Latitude>
    <Longitude>0.09504930586323575</Longitude>
    <Active>true</Active>
    <Password>100038</Password>
  </Customer>
  <Customer>
    <ID>100039</ID>
    <Name>Michelle</Name>
    <Phone>299941079</Phone>
    <Latitude>-0.9227883922507932</Latitude>
    <Longitude>0.3019306940501233</Longitude>
    <Active>true</Active>
    <Password>100039</Password>
  </Customer>
  <Customer>
    <ID>100040</ID>
    <Name>Kenneth</Name>
    <Phone>468101994</Phone>
    <Latitude>0.18475123922561817</Latitude>
    <Longitude>0.7179157951464484</Longitude>
    <Active>true</Active>
    <Password>100040</Password>
  </Customer>
  <Customer>
    <ID>100041</ID>
    <Name>Kevin</Name>
    <Phone>589665213</Phone>
    <Latitude>0.4580255548739925</Latitude>
    <Longitude>0.057893810820716346</Longitude>
    <Active>true</Active>
    <Password>100041</Password>
  </Customer>
  <Customer>
    <ID>100042</ID>
    <Name>Brian</Name>
    <Phone>419260308</Phone>
    <Latitude>0.8147924392553011</Latitude>
    <Longitude>1.2133749449687894</Longitude>
    <Active>true</Active>
    <Password>100042</Password>
  </Customer>
  <Customer>
    <ID>100043</ID>
    <Name>George</Name>
    <Phone>428982720</Phone>
    <Latitude>-0.6003403754906451</Latitude>
    <Longitude>1.2716168292200272</Longitude>
    <Active>true</Active>
    <Password>100043</Password>
  </Customer>
  <Customer>
    <ID>100044</ID>
    <Name>Edward</Name>
    <Phone>203908288</Phone>
    <Latitude>0.40632211249616096</Latitude>
    <Longitude>0.20608898820639074</Longitude>
    <Active>true</Active>
    <Password>100044</Password>
  </Customer>
  <Customer>
    <ID>100045</ID>
    <Name>Ronald</Name>
    <Phone>920352764</Phone>
    <Latitude>0.3703069562885477</Latitude>
    <Longitude>0.603046530207175</Longitude>
    <Active>true</Active>
    <Password>100045</Password>
  </Customer>
  <Customer>
    <ID>100046</ID>
    <Name>Timothy</Name>
    <Phone>333299308</Phone>
    <Latitude>-0.9863801943074819</Latitude>
    <Longitude>1.0199767095129828</Longitude>
    <Active>true</Active>
    <Password>100046</Password>
  </Customer>
  <Customer>
    <ID>100047</ID>
    <Name>Jason</Name>
    <Phone>612316167</Phone>
    <Latitude>-0.571756507536283</Latitude>
    <Longitude>1.2506121142071729</Longitude>
    <Active>true</Active>
    <Password>100047</Password>
  </Customer>
</ArrayOfCustomer>