<?xml version="1.0"?>
<ArrayOfCustomer xmlns:xsi="http://www.w3.org/2001/XMLSchema-instance" xmlns:xsd="http://www.w3.org/2001/XMLSchema">
  <Customer>
    <ID>100000</ID>
    <Name>Jamie</Name>
    <Phone>659035058</Phone>
    <Latitude>-0.40119305970202807</Latitude>
    <Longitude>1.0167475403364503</Longitude>
    <Active>true</Active>
    <Password>qwerty</Password>
  </Customer>
  <Customer>
    <ID>100001</ID>
    <Name>Robert</Name>
    <Phone>948441525</Phone>
    <Latitude>-0.48495816881067966</Latitude>
    <Longitude>1.5180603077253607</Longitude>
    <Active>true</Active>
    <Password>100001</Password>
  </Customer>
  <Customer>
    <ID>100002</ID>
    <Name>John</Name>
    <Phone>541074657</Phone>
    <Latitude>-0.42548131496900754</Latitude>
    <Longitude>0.5805170613250309</Longitude>
    <Active>true</Active>
    <Password>100002</Password>
  </Customer>
  <Customer>
    <ID>100003</ID>
    <Name>Michael</Name>
    <Phone>500070589</Phone>
    <Latitude>0.9114173990261822</Latitude>
    <Longitude>0.6754739483238542</Longitude>
    <Active>true</Active>
    <Password>100003</Password>
  </Customer>
  <Customer>
    <ID>100004</ID>
    <Name>William</Name>
    <Phone>867809634</Phone>
    <Latitude>0.7947815157448787</Latitude>
    <Longitude>1.3771384616275963</Longitude>
    <Active>true</Active>
    <Password>100004</Password>
  </Customer>
  <Customer>
    <ID>100005</ID>
    <Name>David</Name>
    <Phone>907344036</Phone>
    <Latitude>0.8651537014474877</Latitude>
    <Longitude>1.6802078232542648</Longitude>
    <Active>true</Active>
    <Password>100005</Password>
  </Customer>
  <Customer>
    <ID>100006</ID>
    <Name>Richard</Name>
    <Phone>369818473</Phone>
    <Latitude>0.4243996047528459</Latitude>
    <Longitude>1.192392174709771</Longitude>
    <Active>true</Active>
    <Password>100006</Password>
  </Customer>
  <Customer>
    <ID>100007</ID>
    <Name>Joseph</Name>
    <Phone>214074942</Phone>
    <Latitude>-0.6852205319726935</Latitude>
    <Longitude>0.307522386455686</Longitude>
    <Active>true</Active>
    <Password>100007</Password>
  </Customer>
  <Customer>
    <ID>100008</ID>
    <Name>Thomas</Name>
    <Phone>267949998</Phone>
    <Latitude>-0.5953399462603685</Latitude>
    <Longitude>0.12425743794266947</Longitude>
    <Active>true</Active>
    <Password>100008</Password>
  </Customer>
  <Customer>
    <ID>100009</ID>
    <Name>Charles</Name>
    <Phone>788122280</Phone>
    <Latitude>-0.9210453726914922</Latitude>
    <Longitude>0.16643084686548953</Longitude>
    <Active>true</Active>
    <Password>100009</Password>
  </Customer>
  <Customer>
    <ID>100010</ID>
    <Name>Mary</Name>
    <Phone>306094151</Phone>
    <Latitude>-0.7809797552325669</Latitude>
    <Longitude>0.21189954327973515</Longitude>
    <Active>true</Active>
    <Password>100010</Password>
  </Customer>
  <Customer>
    <ID>100011</ID>
    <Name>Patricia</Name>
    <Phone>665023896</Phone>
    <Latitude>-0.1949224989837606</Latitude>
    <Longitude>0.6190394352278856</Longitude>
    <Active>true</Active>
    <Password>100011</Password>
  </Customer>
  <Customer>
    <ID>100012</ID>
    <Name>Jennifer</Name>
    <Phone>508126706</Phone>
    <Latitude>0.527945874970381</Latitude>
    <Longitude>0.9598219631984001</Longitude>
    <Active>true</Active>
    <Password>100012</Password>
  </Customer>
  <Customer>
    <ID>100013</ID>
    <Name>Linda</Name>
    <Phone>231025149</Phone>
    <Latitude>0.5799952878523597</Latitude>
    <Longitude>1.511992720659819</Longitude>
    <Active>true</Active>
    <Password>100013</Password>
  </Customer>
  <Customer>
    <ID>100014</ID>
    <Name>Elizabeth</Name>
    <Phone>625675633</Phone>
    <Latitude>-0.49101489432669004</Latitude>
    <Longitude>1.036626402771392</Longitude>
    <Active>true</Active>
    <Password>100014</Password>
  </Customer>
  <Customer>
    <ID>100015</ID>
    <Name>Barbara</Name>
    <Phone>663137302</Phone>
    <Latitude>0.7671159700337407</Latitude>
    <Longitude>1.6097248418301926</Longitude>
    <Active>true</Active>
    <Password>100015</Password>
  </Customer>
  <Customer>
    <ID>100016</ID>
    <Name>Susan</Name>
    <Phone>934235363</Phone>
    <Latitude>-0.001186115202114971</Latitude>
    <Longitude>1.6983658623408366</Longitude>
    <Active>true</Active>
    <Password>100016</Password>
  </Customer>
  <Customer>
    <ID>100017</ID>
    <Name>Jessica</Name>
    <Phone>824145114</Phone>
    <Latitude>0.5567553409173877</Latitude>
    <Longitude>1.8641528859101948</Longitude>
    <Active>true</Active>
    <Password>100017</Password>
  </Customer>
  <Customer>
    <ID>100018</ID>
    <Name>Sarah</Name>
    <Phone>603825802</Phone>
    <Latitude>-0.614127025759838</Latitude>
    <Longitude>0.23213834885141735</Longitude>
    <Active>true</Active>
    <Password>100018</Password>
  </Customer>
  <Customer>
    <ID>100019</ID>
    <Name>Karen</Name>
    <Phone>557936770</Phone>
    <Latitude>-0.7111592505644817</Latitude>
    <Longitude>0.2097516107418349</Longitude>
    <Active>true</Active>
    <Password>100019</Password>
  </Customer>
  <Customer>
    <ID>100020</ID>
    <Name>Christopher</Name>
    <Phone>383380330</Phone>
    <Latitude>-0.5497303374808888</Latitude>
    <Longitude>1.1976081231597848</Longitude>
    <Active>true</Active>
    <Password>100020</Password>
  </Customer>
  <Customer>
    <ID>100021</ID>
    <Name>Daniel</Name>
    <Phone>800680085</Phone>
    <Latitude>-0.018642151736953366</Latitude>
    <Longitude>1.2132316423641665</Longitude>
    <Active>true</Active>
    <Password>100021</Password>
  </Customer>
  <Customer>
    <ID>100022</ID>
    <Name>Matthew</Name>
    <Phone>776475153</Phone>
    <Latitude>-0.3508153554754403</Latitude>
    <Longitude>0.5471308345660245</Longitude>
    <Active>true</Active>
    <Password>100022</Password>
  </Customer>
  <Customer>
    <ID>100023</ID>
    <Name>Anthony</Name>
    <Phone>741222916</Phone>
    <Latitude>-0.7166618670880152</Latitude>
    <Longitude>0.923755064105501</Longitude>
    <Active>true</Active>
    <Password>100023</Password>
  </Customer>
  <Customer>
    <ID>100024</ID>
    <Name>Mark</Name>
    <Phone>233829584</Phone>
    <Latitude>-0.5514726469067264</Latitude>
    <Longitude>1.2532364294180816</Longitude>
    <Active>true</Active>
    <Password>100024</Password>
  </Customer>
  <Customer>
    <ID>100025</ID>
    <Name>Donald</Name>
    <Phone>182147569</Phone>
    <Latitude>0.2603496398126472</Latitude>
    <Longitude>1.7934375553361315</Longitude>
    <Active>true</Active>
    <Password>100025</Password>
  </Customer>
  <Customer>
    <ID>100026</ID>
    <Name>Steven</Name>
    <Phone>959310291</Phone>
    <Latitude>0.9746106602133301</Latitude>
    <Longitude>1.0629129479932193</Longitude>
    <Active>true</Active>
    <Password>100026</Password>
  </Customer>
  <Customer>
    <ID>100027</ID>
    <Name>Paul</Name>
    <Phone>208377603</Phone>
    <Latitude>-0.7276317122055366</Latitude>
    <Longitude>1.7458495738663942</Longitude>
    <Active>true</Active>
    <Password>100027</Password>
  </Customer>
  <Customer>
    <ID>100028</ID>
    <Name>Andrew</Name>
    <Phone>350843781</Phone>
    <Latitude>-0.10369966044262967</Latitude>
    <Longitude>0.1519555524699183</Longitude>
    <Active>true</Active>
    <Password>100028</Password>
  </Customer>
  <Customer>
    <ID>100029</ID>
    <Name>Joshua</Name>
    <Phone>661954601</Phone>
    <Latitude>-0.03347615573251441</Latitude>
    <Longitude>1.8165720597918016</Longitude>
    <Active>true</Active>
    <Password>100029</Password>
  </Customer>
  <Customer>
    <ID>100030</ID>
    <Name>Nancy</Name>
    <Phone>993707579</Phone>
    <Latitude>-0.4970316004459893</Latitude>
    <Longitude>0.9075806554907843</Longitude>
    <Active>true</Active>
    <Password>100030</Password>
  </Customer>
  <Customer>
    <ID>100031</ID>
    <Name>Lisa</Name>
    <Phone>170839593</Phone>
    <Latitude>-0.29959124526921255</Latitude>
    <Longitude>1.6862891603663048</Longitude>
    <Active>true</Active>
    <Password>100031</Password>
  </Customer>
  <Customer>
    <ID>100032</ID>
    <Name>Betty</Name>
    <Phone>240957744</Phone>
    <Latitude>0.9976981966745566</Latitude>
    <Longitude>1.9146919734378773</Longitude>
    <Active>true</Active>
    <Password>100032</Password>
  </Customer>
  <Customer>
    <ID>100033</ID>
    <Name>Margaret</Name>
    <Phone>578923894</Phone>
    <Latitude>-0.5856813670069358</Latitude>
    <Longitude>0.10903478791426624</Longitude>
    <Active>true</Active>
    <Password>100033</Password>
  </Customer>
  <Customer>
    <ID>100034</ID>
    <Name>Sandra</Name>
    <Phone>140334672</Phone>
    <Latitude>0.2460031911013663</Latitude>
    <Longitude>1.6078455371818716</Longitude>
    <Active>true</Active>
    <Password>100034</Password>
  </Customer>
  <Customer>
    <ID>100035</ID>
    <Name>Ashley</Name>
    <Phone>188683855</Phone>
    <Latitude>-0.4767212194747856</Latitude>
    <Longitude>0.048014694847173384</Longitude>
    <Active>true</Active>
    <Password>100035</Password>
  </Customer>
  <Customer>
    <ID>100036</ID>
    <Name>Kimberly</Name>
    <Phone>193273865</Phone>
    <Latitude>0.6051198945404589</Latitude>
    <Longitude>1.2175404928706308</Longitude>
    <Active>true</Active>
    <Password>100036</Password>
  </Customer>
  <Customer>
    <ID>100037</ID>
    <Name>Emily</Name>
    <Phone>561894129</Phone>
    <Latitude>0.38152953348193763</Latitude>
    <Longitude>0.23044676437529119</Longitude>
    <Active>true</Active>
    <Password>100037</Password>
  </Customer>
  <Customer>
    <ID>100038</ID>
    <Name>Donna</Name>
    <Phone>572629289</Phone>
    <Latitude>0.27073556011111266</Latitude>
    <Longitude>1.1884869538193974</Longitude>
    <Active>true</Active>
    <Password>100038</Password>
  </Customer>
  <Customer>
    <ID>100039</ID>
    <Name>Michelle</Name>
    <Phone>246525191</Phone>
    <Latitude>0.05112370664771819</Latitude>
    <Longitude>1.3103959342978875</Longitude>
    <Active>true</Active>
    <Password>100039</Password>
  </Customer>
  <Customer>
    <ID>100040</ID>
    <Name>Kenneth</Name>
    <Phone>779503711</Phone>
    <Latitude>-0.07695995414488016</Latitude>
    <Longitude>0.245442724900992</Longitude>
    <Active>true</Active>
    <Password>100040</Password>
  </Customer>
  <Customer>
    <ID>100041</ID>
    <Name>Kevin</Name>
    <Phone>784235868</Phone>
    <Latitude>-0.2898317399853057</Latitude>
    <Longitude>1.3860678912075552</Longitude>
    <Active>true</Active>
    <Password>100041</Password>
  </Customer>
  <Customer>
    <ID>100042</ID>
    <Name>Brian</Name>
    <Phone>181089039</Phone>
    <Latitude>-0.1489287736587826</Latitude>
    <Longitude>0.7567816203258846</Longitude>
    <Active>true</Active>
    <Password>100042</Password>
  </Customer>
  <Customer>
    <ID>100043</ID>
    <Name>George</Name>
    <Phone>450515175</Phone>
    <Latitude>0.2224062235198944</Latitude>
    <Longitude>1.032574404511868</Longitude>
    <Active>true</Active>
    <Password>100043</Password>
  </Customer>
  <Customer>
    <ID>100044</ID>
    <Name>Edward</Name>
    <Phone>109751804</Phone>
    <Latitude>-0.07353652411770845</Latitude>
    <Longitude>0.9471815298065457</Longitude>
    <Active>true</Active>
    <Password>100044</Password>
  </Customer>
  <Customer>
    <ID>100045</ID>
    <Name>Ronald</Name>
    <Phone>374267026</Phone>
    <Latitude>-0.6108362896418368</Latitude>
    <Longitude>1.5501803651220074</Longitude>
    <Active>true</Active>
    <Password>100045</Password>
  </Customer>
  <Customer>
    <ID>100046</ID>
    <Name>Timothy</Name>
    <Phone>244193199</Phone>
    <Latitude>-0.852146254317903</Latitude>
    <Longitude>0.5228042008927112</Longitude>
    <Active>true</Active>
    <Password>100046</Password>
  </Customer>
  <Customer>
    <ID>100047</ID>
    <Name>Jason</Name>
    <Phone>956864416</Phone>
    <Latitude>0.4193572511055308</Latitude>
    <Longitude>1.9873851928801207</Longitude>
    <Active>true</Active>
    <Password>100047</Password>
  </Customer>
  <Customer>
    <ID>100048</ID>
    <Name>Jeffrey</Name>
    <Phone>485195565</Phone>
    <Latitude>-0.9888168820127924</Latitude>
    <Longitude>0.04315532652808136</Longitude>
    <Active>true</Active>
    <Password>100048</Password>
  </Customer>
  <Customer>
    <ID>100049</ID>
    <Name>Ryan</Name>
    <Phone>191696015</Phone>
    <Latitude>-0.3634748996065347</Latitude>
    <Longitude>1.6276117775717804</Longitude>
    <Active>true</Active>
    <Password>100049</Password>
  </Customer>
  <Customer>
    <ID>100050</ID>
    <Name>Dorothy</Name>
    <Phone>337899491</Phone>
    <Latitude>0.30181615906852116</Latitude>
    <Longitude>0.7285738516266336</Longitude>
    <Active>true</Active>
    <Password>100050</Password>
  </Customer>
  <Customer>
    <ID>100051</ID>
    <Name>Carol</Name>
    <Phone>415331254</Phone>
    <Latitude>0.4590927206254996</Latitude>
    <Longitude>0.6054748625520034</Longitude>
    <Active>true</Active>
    <Password>100051</Password>
  </Customer>
  <Customer>
    <ID>100052</ID>
    <Name>Amanda</Name>
    <Phone>514888432</Phone>
    <Latitude>0.117322590722387</Latitude>
    <Longitude>0.17853848830728722</Longitude>
    <Active>true</Active>
    <Password>100052</Password>
  </Customer>
  <Customer>
    <ID>100053</ID>
    <Name>Melissa</Name>
    <Phone>730873906</Phone>
    <Latitude>-0.34441735332106116</Latitude>
    <Longitude>0.2883356689886822</Longitude>
    <Active>true</Active>
    <Password>100053</Password>
  </Customer>
  <Customer>
    <ID>100054</ID>
    <Name>Deborah</Name>
    <Phone>772327966</Phone>
    <Latitude>0.5997465753926646</Latitude>
    <Longitude>1.8162316427641696</Longitude>
    <Active>true</Active>
    <Password>100054</Password>
  </Customer>
  <Customer>
    <ID>100055</ID>
    <Name>Stephanie</Name>
    <Phone>871866467</Phone>
    <Latitude>0.07938502592937323</Latitude>
    <Longitude>1.341483362643739</Longitude>
    <Active>true</Active>
    <Password>100055</Password>
  </Customer>
  <Customer>
    <ID>100056</ID>
    <Name>Rebecca</Name>
    <Phone>331495433</Phone>
    <Latitude>0.03746887670712028</Latitude>
    <Longitude>0.8012888491159719</Longitude>
    <Active>true</Active>
    <Password>100056</Password>
  </Customer>
  <Customer>
    <ID>100057</ID>
    <Name>Sharon</Name>
    <Phone>256138821</Phone>
    <Latitude>-0.7881707492229393</Latitude>
    <Longitude>1.2947208775648478</Longitude>
    <Active>true</Active>
    <Password>100057</Password>
  </Customer>
  <Customer>
    <ID>100058</ID>
    <Name>Laura</Name>
    <Phone>828812127</Phone>
    <Latitude>-0.536346810188306</Latitude>
    <Longitude>0.005849963056785037</Longitude>
    <Active>true</Active>
    <Password>100058</Password>
  </Customer>
  <Customer>
    <ID>100059</ID>
    <Name>Cynthia</Name>
    <Phone>182948478</Phone>
    <Latitude>-0.9656419548977362</Latitude>
    <Longitude>1.4022438905212302</Longitude>
    <Active>true</Active>
    <Password>100059</Password>
  </Customer>
  <Customer>
    <ID>100060</ID>
    <Name>Jacob</Name>
    <Phone>213745760</Phone>
    <Latitude>0.1294649006470409</Latitude>
    <Longitude>1.6694979666124554</Longitude>
    <Active>true</Active>
    <Password>100060</Password>
  </Customer>
  <Customer>
    <ID>100061</ID>
    <Name>Gary</Name>
    <Phone>852354201</Phone>
    <Latitude>-0.8024423815321374</Latitude>
    <Longitude>0.16715543911194217</Longitude>
    <Active>true</Active>
    <Password>100061</Password>
  </Customer>
  <Customer>
    <ID>100062</ID>
    <Name>Nicholas</Name>
    <Phone>674524049</Phone>
    <Latitude>-0.9047508099604169</Latitude>
    <Longitude>1.0042757722569051</Longitude>
    <Active>true</Active>
    <Password>100062</Password>
  </Customer>
  <Customer>
    <ID>100063</ID>
    <Name>Eric</Name>
    <Phone>460871382</Phone>
    <Latitude>0.35562945034151405</Latitude>
    <Longitude>0.36989548447071363</Longitude>
    <Active>true</Active>
    <Password>100063</Password>
  </Customer>
  <Customer>
    <ID>100064</ID>
    <Name>Jonathan</Name>
    <Phone>604768408</Phone>
    <Latitude>-0.8479296326860458</Latitude>
    <Longitude>0.6257983672552735</Longitude>
    <Active>true</Active>
    <Password>100064</Password>
  </Customer>
  <Customer>
    <ID>100065</ID>
    <Name>Stephen</Name>
    <Phone>557827285</Phone>
    <Latitude>-0.3251176510588814</Latitude>
    <Longitude>1.3456327968023871</Longitude>
    <Active>true</Active>
    <Password>100065</Password>
  </Customer>
  <Customer>
    <ID>100066</ID>
    <Name>Larry</Name>
    <Phone>732627864</Phone>
    <Latitude>-0.9360476997383161</Latitude>
    <Longitude>0.3292483949704321</Longitude>
    <Active>true</Active>
    <Password>100066</Password>
  </Customer>
  <Customer>
    <ID>100067</ID>
    <Name>Justin</Name>
    <Phone>221643420</Phone>
    <Latitude>-0.34753184502363754</Latitude>
    <Longitude>1.562778237072182</Longitude>
    <Active>true</Active>
    <Password>100067</Password>
  </Customer>
  <Customer>
    <ID>100068</ID>
    <Name>Scott</Name>
    <Phone>257522007</Phone>
    <Latitude>0.26138475130376626</Latitude>
    <Longitude>1.4563290148304444</Longitude>
    <Active>true</Active>
    <Password>100068</Password>
  </Customer>
  <Customer>
    <ID>100069</ID>
    <Name>Brandon</Name>
    <Phone>351073065</Phone>
    <Latitude>0.9062133882689352</Latitude>
    <Longitude>0.9095495328817281</Longitude>
    <Active>true</Active>
    <Password>100069</Password>
  </Customer>
  <Customer>
    <ID>100070</ID>
    <Name>Kathleen</Name>
    <Phone>770272559</Phone>
    <Latitude>0.8668180177299389</Latitude>
    <Longitude>0.537473538209439</Longitude>
    <Active>true</Active>
    <Password>100070</Password>
  </Customer>
  <Customer>
    <ID>100071</ID>
    <Name>Amy</Name>
    <Phone>562261743</Phone>
    <Latitude>-0.9122648546063643</Latitude>
    <Longitude>0.9083236041051911</Longitude>
    <Active>true</Active>
    <Password>100071</Password>
  </Customer>
  <Customer>
    <ID>100072</ID>
    <Name>Shirley</Name>
    <Phone>622153296</Phone>
    <Latitude>-0.02431025450318598</Latitude>
    <Longitude>0.48847068589575154</Longitude>
    <Active>true</Active>
    <Password>100072</Password>
  </Customer>
  <Customer>
    <ID>100073</ID>
    <Name>Angela</Name>
    <Phone>872714959</Phone>
    <Latitude>-0.11182293859860996</Latitude>
    <Longitude>1.6025330552843087</Longitude>
    <Active>true</Active>
    <Password>100073</Password>
  </Customer>
  <Customer>
    <ID>100074</ID>
    <Name>Helen</Name>
    <Phone>100193543</Phone>
    <Latitude>-0.12759855442102933</Latitude>
    <Longitude>1.7998028256929492</Longitude>
    <Active>true</Active>
    <Password>100074</Password>
  </Customer>
  <Customer>
    <ID>100075</ID>
    <Name>Anna</Name>
    <Phone>570667950</Phone>
    <Latitude>0.1280973912813223</Latitude>
    <Longitude>0.5816564208742494</Longitude>
    <Active>true</Active>
    <Password>100075</Password>
  </Customer>
  <Customer>
    <ID>120002</ID>
    <Name>Happy</Name>
    <Phone>123456789</Phone>
    <Latitude>0.5372093</Latitude>
    <Longitude>1.213243</Longitude>
    <Active>true</Active>
    <Password>120002</Password>
  </Customer>
</ArrayOfCustomer>